{"2737a": {"name": "Tyne and Fear", "logo": "/central/independent/league-logo/1716220739.png", "region": "EUR", "location": "Newcastle upon Tyne \u2013 UK"}, "13122a": {"name": "Kent", "logo": "/central/independent/league-logo/1704641811.png", "region": "EUR", "location": "Margate, Kent \u2013 UK"}, "17909a": {"name": "Borderland Bandits", "logo": "/central/borderland-bandits-roller-derby/league-logo/1765180398.png", "region": "EUR", "location": "Stamford, Lincolnshire \u2013 UK"}, "2733a": {"name": "The Inhuman League", "logo": "/central/independent/league-logo/1716914230.png", "region": "EUR", "location": "Sheffield, South Yorkshire \u2013 UK"}, "2685a": {"name": "Carolina Wreckingballs", "logo": "/central/independent/league-logo/1726108343.png", "region": "AM", "location": "Columbia, South Carolina \u2013 USA"}, "17403a": {"name": "Pittsburgh Undead", "logo": "/central/independent/league-logo/1701806246.png", "region": "AM", "location": "Pittsburgh, Pennsylvania \u2013 USA"}, "2699a": {"name": "Concussion", "logo": "/central/lane-county-concussion/league-logo/1761111385.png", "region": "AM", "location": "Salem, Oregon \u2013 USA"}, "2717a": {"name": "Puget Sound Outcast", "logo": "/central/puget-sound-outcast-derby/league-logo/1759719503.png", "region": "AM", "location": "Seattle, Washington \u2013 USA"}, "2725a": {"name": "South Wales Silures", "logo": "/central/independent/league-logo/1735931817.png", "region": "EUR", "location": "Abercynon, South Wales \u2013 UK"}, "2737b": {"name": "Tyne and Fear Inglorious B*stars", "logo": "/central/independent/league-logo/1716220739.png", "region": "EUR", "location": "Newcastle upon Tyne \u2013 UK"}, "2701a": {"name": "Magic City Misfits", "logo": "/central/independent/league-logo/1695435333.png", "region": "AM", "location": "DeLand, Florida \u2013 USA"}, "2702b": {"name": "Manchester (B)", "logo": "/central/independent/league-logo/1695234709.png", "region": "EUR", "location": "Manchester \u2013 UK"}, "2702a": {"name": "Manchester New Wheeled Order", "logo": "/central/independent/league-logo/1695234709.png", "region": "EUR", "location": "Manchester \u2013 UK"}, "17403b": {"name": "Pittsburgh ZomBees", "logo": "/central/independent/league-logo/1701806246.png", "region": "AM", "location": "Pittsburgh, Pennsylvania \u2013 USA"}, "2689a": {"name": "Cleveland Guardians", "logo": "/central/independent/league-logo/1738806791.png", "region": "AM", "location": "Cleveland Heights, Ohio \u2013 USA"}, "2694a": {"name": "Detroit Riot", "logo": "img/detroit-riot.jpg", "region": "AM", "location": "Detroit, Michigan \u2013 USA"}, "3013a": {"name": "Atlanta Terminus", "logo": "/central/atlanta-mens-roller-derby/league-logo/1758916261.png", "region": "AM", "location": "Mableton, Georgia \u2013 USA"}, "2692a": {"name": "Crash Test Brummies", "logo": "/central/independent/league-logo/1698067237.png", "region": "EUR", "location": "Halesowen, Birmingham \u2013 UK"}, "17405a": {"name": "Flour City Fear", "logo": "img/flour-city-fear.jpg", "region": "AM", "location": "Rochester, New York \u2013 USA"}, "2735a": {"name": "Toronto", "logo": "/central/toronto-mens-roller-derby/league-logo/1758669574.png", "region": "AM", "location": "Toronto, Ontario \u2013 CAN"}, "2715a": {"name": "Philadelphia Hooligans", "logo": "/central/independent/league-logo/1709213176.png", "region": "AM", "location": "Philadelphia, Pennsylvania \u2013 USA"}, "2686a": {"name": "Casco Bay Not So Jolly Rogers", "logo": "/central/independent/league-logo/1693151649.png", "region": "AM", "location": "Westbrook, Maine \u2013 USA"}, "2676a": {"name": "Austin Anarchy", "logo": "img/austin-anarchy.jpg", "region": "AM", "location": "Austin, Texas \u2013 USA"}, "2686b": {"name": "Casco Bay Black Sails", "logo": "/central/independent/league-logo/1693151649.png", "region": "AM", "location": "Westbrook, Maine \u2013 USA"}, "2696a": {"name": "Chinook Glenmore Reservoir Dogs", "logo": "/central/independent/league-logo/1707714420.png", "region": "AM", "location": "Calgary, Alberta \u2013 CAN"}, "2723a": {"name": "San Diego Aftershocks", "logo": "/central/independent/league-logo/1695493262.png", "region": "AM", "location": "San Diego, California \u2013 USA"}, "2719a": {"name": "Race City Rebels", "logo": "/central/race-city-rebels/league-logo/1758639052.png", "region": "AM", "location": "Indianapolis, Indiana \u2013 USA"}, "2687a": {"name": "Chicago Bruise Brothers", "logo": "/central/independent/league-logo/1719499107.png", "region": "AM", "location": "Chicago, Illinois \u2013 USA"}, "2687b": {"name": "Chicago Step Brothers", "logo": "/central/independent/league-logo/1719499107.png", "region": "AM", "location": "Chicago, Illinois \u2013 USA"}, "2727b": {"name": "Saint Louis B-Keepers", "logo": "/central/saint-louis-gatekeepers/league-logo/1759614673.png", "region": "AM", "location": "St. Louis, Missouri \u2013 USA"}, "2723b": {"name": "San Diego Tremors", "logo": "/central/independent/league-logo/1695493262.png", "region": "AM", "location": "San Diego, California \u2013 USA"}, "2693a": {"name": "Denver Ground Control", "logo": "/central/independent/league-logo/1716841580.png", "region": "AM", "location": "Denver, Colorado \u2013 USA"}, "17908a": {"name": "Disorder", "logo": "/central/independent/league-logo/1716443231.png", "region": "AM", "location": "Ciudad de M\u00e9xico \u2013 MEX"}, "2727a": {"name": "Saint Louis Gatekeepers", "logo": "/central/saint-louis-gatekeepers/league-logo/1759614673.png", "region": "AM", "location": "St. Louis, Missouri \u2013 USA"}, "2715b": {"name": "Philadelphia Shenanigans", "logo": "/central/independent/league-logo/1709213176.png", "region": "AM", "location": "Philadelphia, Pennsylvania \u2013 USA"}, "17910a": {"name": "Tours Track'Ass", "logo": "/central/independent/league-logo/1723999065.png", "region": "EUR", "location": "Nordiks de Touraine \u2013 FRA"}, "2714a": {"name": "Panam Squad", "logo": "/central/independent/league-logo/1728295036.png", "region": "EUR", "location": "Paris \u2013 FRA"}, "17911a": {"name": "Toulouse Quad Guards", "logo": "/central/roller-derby-toulouse/league-logo/1759504188.png", "region": "EUR", "location": "Toulouse \u2013 FRA"}, "17917a": {"name": "Wirral Pack Animals", "logo": "/central/independent/league-logo/1738337188.png", "region": "EUR", "location": "Merseyside, Wirral \u2013 UK"}, "17913a": {"name": "Southern Discomfort", "logo": "/central/independent/league-logo/1732373773.png", "region": "EUR", "location": "London \u2013 UK"}, "17914a": {"name": "Dallas Y'allhalla", "logo": "/central/dallas-derby-devils/league-logo/1757966722.png", "region": "AM", "location": "The Colony, Texas \u2013 USA"}, "17912a": {"name": "Tampa Death Rollers", "logo": "/central/independent/league-logo/1739908971.png", "region": "AM", "location": "Tampa, Florida \u2013 USA"}, "17916a": {"name": "Orcet Wolfgang", "logo": "/central/independent/league-logo/1738784130.png", "region": "EUR", "location": "Romagnat \u2013 FRA"}, "17915a": {"name": "Nantes Jules V\u00e9n\u00e8res", "logo": "/central/independent/league-logo/1737067688.png", "region": "EUR", "location": "Nantes Atlantique \u2013 FRA"}, "2699b": {"name": "Brainstorm", "logo": "/central/lane-county-concussion/league-logo/1761111385.png", "region": "AM", "location": "Salem, Oregon \u2013 USA"}, "17404a": {"name": "D.H.R.", "logo": "/central/dhr-mens-roller-derby/league-logo/1758646418.png", "region": "EUR", "location": "Kiel \u2013 GER"}, "2706a": {"name": "Wisconsin United", "logo": "/central/independent/league-logo/1697153990.png", "region": "AM", "location": "Madison, Wisconsin \u2013 USA"}}